title: Auralis Group
email: info@auralispartners.com
description: >- 
  Auralis Group
  Building ventures par excellence
baseurl: "/"
url: "auralis.group"

content:
  nav:
    - id: home
      name: Home
      link: /
    - id: services
      name: Services
      link: /services/
    - id: about
      name: About Us
      link: /about-us/
#    - id: success-stories
#      name: Success Stories
#      link: /success-stories/
#    - id: insights
#      name: Insights
#      link: /insights/
    - id: careers
      name: Careers
      link: /careers/
  
  logos:
    - src: /assets/logos/uniper_logo.png
      name: Uniper
    - src: /assets/logos/atlas_elektronik.png 
      name: Atlas Elektronik
    - src: /assets/logos/axiros_logo.png 
      name: Axiros
    - src: /assets/logos/bg_phoenics_logo.jpeg
      name: BG Phoenics
    - src: /assets/logos/bilfinger_logo.jpeg 
      name: Bilfinger
    - src: /assets/logos/btv.png 
      name: BTV
    - src: /assets/logos/bundesagentur_fuer_arbeit_logo.png
      name: Bundesagentur für Arbeit 
    - src: /assets/logos/cariad_logo.png 
      name: Cariad
    - src: /assets/logos/Deutsche_Bahn.png 
      name: Deutsche Bahn
    - src: /assets/logos/fratch_logo.png 
      name: Fratch
    - src: /assets/logos/hitachi_logo.svg
      name: Hitachi
    - src: /assets/logos/jysk_logo.jpg
      name: Jysk
    - src: /assets/logos/koerber_logo.png 
      name: Körber
    - src: /assets/logos/miele_logo.png
      name: Miele
    - src: /assets/logos/nunatak.png 
      name: Nunatak
    - src: /assets/logos/rheinmetall_logo.png 
      name: Rheinmetall
    - src: /assets/logos/swarco_logo.png 
      name: Swarco
    - src: /assets/logos/Thales_Logo.svg
      name: Thales

  cities:
    - name: Berlin
      lat: 52.5200
      lon: 13.4050
    - name: Munich
      lat: 48.1351
      lon: 11.5820
    - name: Karlsruhe
      lat: 49.0069
      lon: 8.4037
    - name: Bedburg
      lat: 51.0018
      lon: 6.5627
    - name: Leutenbach
      lat: 48.8881
      lon: 9.3905
    - name: Eppingen
      lat: 49.1380
      lon: 8.9092
    - name: Würzburg
      lat: 49.7913
      lon: 9.9534
    - name: Saarlouis
      lat: 49.3124
      lon: 6.7507
    - name: Scharbeutz
      lat: 54.0225
      lon: 10.7544

theme: minima
plugins:
  - jekyll-feed
