title: Auralis Group
email: info@auralispartners.com
description: We change the way software is built.
baseurl: "/"
url: "https://auralis.group"
meta_image: /assets/auralis_meta.png
keywords: "auralis, auralis group, auralis partners, software development, software engineering, software architecture, software consulting, software solutions, consulting, venture studio, startup builder, teams as a service, tech recruiting, tech investment"

sass:
  quiet_deps: true

content:
  nav:
    - id: home
      name: Home
      link: /
    - id: services
      name: Services
      link: /services/
    - id: team
      name: Meet the Team
      link: /team/
    - id: about
      name: About Us
      link: /about-us/
#    - id: success-stories
#      name: Success Stories
#      link: /success-stories/
#    - id: insights
#      name: Insights
#      link: /insights/
    - id: careers
      name: Careers
      link: /careers/
    - id: blog
      name: Blog
      link: /blog/

  logos:
    - src: /assets/logos/uniper_logo.png
      name: Uniper
    - src: /assets/logos/atlas_elektronik.png 
      name: Atlas Elektronik
    - src: /assets/logos/axiros_logo.png 
      name: Axiros
    - src: /assets/logos/bg_phoenics_logo.jpeg
      name: BG Phoenics
    - src: /assets/logos/bilfinger_logo.jpeg 
      name: Bilfinger
    - src: /assets/logos/btv.png 
      name: BTV
    - src: /assets/logos/bundesagentur_fuer_arbeit_logo.png
      name: Bundesagentur für Arbeit 
    - src: /assets/logos/cariad_logo.png 
      name: Cariad
    - src: /assets/logos/Deutsche_Bahn.png 
      name: Deutsche Bahn
    - src: /assets/logos/fratch_logo.png 
      name: Fratch
    - src: /assets/logos/hitachi_logo.svg
      name: Hitachi
    - src: /assets/logos/jysk_logo.jpg
      name: Jysk
    - src: /assets/logos/koerber_logo.png 
      name: Körber
    - src: /assets/logos/miele_logo.png
      name: Miele
    - src: /assets/logos/nunatak.png 
      name: Nunatak
    - src: /assets/logos/rheinmetall_logo.png 
      name: Rheinmetall
    - src: /assets/logos/swarco_logo.png 
      name: Swarco
    - src: /assets/logos/Thales_Logo.svg
      name: Thales

  cities:
    - name: Berlin
      lat: 52.5200
      lon: 13.4050
    - name: Munich
      lat: 48.1351
      lon: 11.5820
    - name: Karlsruhe
      lat: 49.0069
      lon: 8.4037
    - name: Eppingen
      lat: 49.1380
      lon: 8.9092
    - name: Würzburg
      lat: 49.7913
      lon: 9.9534
    - name: Saarlouis
      lat: 49.3124
      lon: 6.7507
    - name: Scharbeutz
      lat: 54.0225
      lon: 10.7544
    - name: Heilbronn
      lat: 49.150002
      lon: 9.210000
    - name: Berlin-Umgebung
      lat:  52.6530
      lon:  13.0139
    - name: Merklingen
      lat: 48.5
      lon: 9.8
    - name: Egling
      lat: 48.167943
      lon: 10.952394
    - name: Aachen
      lat: 50.77664
      lon: 6.08342
    - name: Darmstadt-Dieburg
      lat: 49.92000
      lon: 8.83000
    - name: Leipzig
      lat: 51.340199
      lon: 12.360103
    - name: Burglauer
      lat: 50.26700
      lon: 10.18300
    - name: Thierhaupten
      lat: 48.56700
      lon: 10.91700
    - name: Geislingen
      lat: 48.62423
      lon: 9.82736
    - name: Kaiserslautern
      lat: 49.44300
      lon: 7.77161
    - name: Oberickelsheim
      lat: 49.60000
      lon: 10.13300
    - name: Köln
      lat: 50.93333
      lon: 6.95000
    - name: Bremen
      lat: 53.07582
      lon: 8.80717
    - name: Ludwigshafen
      lat: 49.48121
      lon: 8.44641
    - name: Schönwalde-Glien
      lat: 52.638077
      lon: 13.046343
    - name: Mannheim
      lat: 49.48910
      lon: 8.46694
    - name: Fürth
      lat: 49.466667
      lon: 11.000000
    - name: Neuwied
      lat: 50.436187
      lon: 7.466455
    - name: Prittriching
      lat: 48.20074
      lon: 10.92801
    - name: Buchholz an der Nordheide
      lat: 53.32640
      lon: 9.86810
    - name: Fürstenwalde
      lat: 52.368018
      lon: 14.059473
    - name: Prisdorf
      lat: 53.674861
      lon: 9.764724
    - name: Waldkirchen
      lat: 48.729155
      lon: 13.600959

theme: minima
plugins:
  - jekyll-feed
  - jekyll-sitemap
